{
  "type": "FeatureCollection",
  "features": [
    {
      "type": "Feature",
      "properties": {
        "name": "Ragnar Frisch",
        "born": "Kristiania, Norway"
      },
      "geometry": {
        "type": "Point",
        "coordinates": [
          10.7166776,
          59.984904
        ]
      }
    },
    {
      "type": "Feature",
      "properties": {
        "name": "Jan Tinbergen",
        "born": "The Hague, Netherlands"
      },
      "geometry": {
        "type": "Point",
        "coordinates": [
          4.3006999,
          52.0704978
        ]
      }
    },
    {
      "type": "Feature",
      "properties": {
        "name": "Paul Samuelson",
        "born": "Gary, Indiana, US"
      },
      "geometry": {
        "type": "Point",
        "coordinates": [
          -87.3464271,
          41.5933696
        ]
      }
    },
    {
      "type": "Feature",
      "properties": {
        "name": "Simon Kuznets",
        "born": "Kharkiv, Russian Empire (present-day Ukraine)"
      },
      "geometry": {
        "type": "Point",
        "coordinates": [
          36.230383,
          49.9935
        ]
      }
    },
    {
      "type": "Feature",
      "properties": {
        "name": "John Hicks",
        "born": "Warwick, England"
      },
      "geometry": {
        "type": "Point",
        "coordinates": [
          -1.584927,
          52.28231599999999
        ]
      }
    },
    {
      "type": "Feature",
      "properties": {
        "name": "Kenneth Arrow",
        "born": "New York City, USA"
      },
      "geometry": {
        "type": "Point",
        "coordinates": [
          -74.0059413,
          40.7127837
        ]
      }
    },
    {
      "type": "Feature",
      "properties": {
        "name": "Wassily Leontief",
        "born": "Munich, German Empire"
      },
      "geometry": {
        "type": "Point",
        "coordinates": [
          11.5819806,
          48.1351253
        ]
      }
    },
    {
      "type": "Feature",
      "properties": {
        "name": "Gunnar Myrdal",
        "born": "Gustafs, Dalarna, Sweden"
      },
      "geometry": {
        "type": "Point",
        "coordinates": [
          15.6110187,
          60.41140559999999
        ]
      }
    },
    {
      "type": "Feature",
      "properties": {
        "name": "Friedrich Hayek",
        "born": "Vienna, Cisleithania, Austria-Hungary"
      },
      "geometry": {
        "type": "Point",
        "coordinates": [
          16.3738189,
          48.2081743
        ]
      }
    },
    {
      "type": "Feature",
      "properties": {
        "name": "Leonid Kantorovich",
        "born": "Saint Petersburg, Russian Empire"
      },
      "geometry": {
        "type": "Point",
        "coordinates": [
          30.3350986,
          59.9342802
        ]
      }
    },
    {
      "type": "Feature",
      "properties": {
        "name": "Tjalling Koopmans",
        "born": "'s-Graveland, Netherlands"
      },
      "geometry": {
        "type": "Point",
        "coordinates": [
          5.1314775,
          52.2446819
        ]
      }
    },
    {
      "type": "Feature",
      "properties": {
        "name": "Milton Friedman",
        "born": "Brooklyn, New York, U.S."
      },
      "geometry": {
        "type": "Point",
        "coordinates": [
          -73.9441579,
          40.6781784
        ]
      }
    },
    {
      "type": "Feature",
      "properties": {
        "name": "Bertil Ohlin",
        "born": "Klippan, Skåne County"
      },
      "geometry": {
        "type": "Point",
        "coordinates": [
          13.1290409,
          56.1348998
        ]
      }
    },
    {
      "type": "Feature",
      "properties": {
        "name": "James Meade",
        "born": "Swanage"
      },
      "geometry": {
        "type": "Point",
        "coordinates": [
          -1.960769,
          50.608277
        ]
      }
    },
    {
      "type": "Feature",
      "properties": {
        "name": "Herbert A. Simon",
        "born": "Milwaukee, Wisconsin, USA"
      },
      "geometry": {
        "type": "Point",
        "coordinates": [
          -87.9064736,
          43.0389025
        ]
      }
    },
    {
      "type": "Feature",
      "properties": {
        "name": "Theodore Schultz",
        "born": "Arlington, South Dakota, United States"
      },
      "geometry": {
        "type": "Point",
        "coordinates": [
          -97.13312119999999,
          44.3644133
        ]
      }
    },
    {
      "type": "Feature",
      "properties": {
        "name": "W. Arthur Lewis",
        "born": "Castries, Saint Lucia, British Windward Islands"
      },
      "geometry": {
        "type": "Point",
        "coordinates": [
          -60.98746869999999,
          14.0101094
        ]
      }
    },
    {
      "type": "Feature",
      "properties": {
        "name": "Lawrence Klein",
        "born": "Omaha, Nebraska, U.S."
      },
      "geometry": {
        "type": "Point",
        "coordinates": [
          -95.99798829999999,
          41.2523634
        ]
      }
    },
    {
      "type": "Feature",
      "properties": {
        "name": "James Tobin",
        "born": "Champaign, Illinois, USA"
      },
      "geometry": {
        "type": "Point",
        "coordinates": [
          -88.2433829,
          40.1164204
        ]
      }
    },
    {
      "type": "Feature",
      "properties": {
        "name": "George Stigler",
        "born": "Seattle, Washington"
      },
      "geometry": {
        "type": "Point",
        "coordinates": [
          -122.3320708,
          47.6062095
        ]
      }
    },
    {
      "type": "Feature",
      "properties": {
        "name": "Gérard Debreu",
        "born": "Calais, France"
      },
      "geometry": {
        "type": "Point",
        "coordinates": [
          1.858686,
          50.95129000000001
        ]
      }
    },
    {
      "type": "Feature",
      "properties": {
        "name": "Richard Stone",
        "born": "London, England"
      },
      "geometry": {
        "type": "Point",
        "coordinates": [
          -0.1277583,
          51.5073509
        ]
      }
    },
    {
      "type": "Feature",
      "properties": {
        "name": "Franco Modigliani",
        "born": "Rome, Italy"
      },
      "geometry": {
        "type": "Point",
        "coordinates": [
          12.4963655,
          41.9027835
        ]
      }
    },
    {
      "type": "Feature",
      "properties": {
        "name": "James M. Buchanan",
        "born": "Murfreesboro, Tennessee, U.S."
      },
      "geometry": {
        "type": "Point",
        "coordinates": [
          -86.39027,
          35.8456213
        ]
      }
    },
    {
      "type": "Feature",
      "properties": {
        "name": "Robert Solow",
        "born": "Brooklyn, New York"
      },
      "geometry": {
        "type": "Point",
        "coordinates": [
          -73.9441579,
          40.6781784
        ]
      }
    },
    {
      "type": "Feature",
      "properties": {
        "name": "Maurice Allais",
        "born": "Paris"
      },
      "geometry": {
        "type": "Point",
        "coordinates": [
          2.3522219,
          48.856614
        ]
      }
    },
    {
      "type": "Feature",
      "properties": {
        "name": "Trygve Haavelmo",
        "born": "Skedsmo, Norway"
      },
      "geometry": {
        "type": "Point",
        "coordinates": [
          11.0421988,
          59.9929184
        ]
      }
    },
    {
      "type": "Feature",
      "properties": {
        "name": "Harry Markowitz",
        "born": "Chicago, Illinois, USA"
      },
      "geometry": {
        "type": "Point",
        "coordinates": [
          -87.6297982,
          41.8781136
        ]
      }
    },
    {
      "type": "Feature",
      "properties": {
        "name": "Merton Miller",
        "born": "Boston, Massachusetts"
      },
      "geometry": {
        "type": "Point",
        "coordinates": [
          -71.0588801,
          42.3600825
        ]
      }
    },
    {
      "type": "Feature",
      "properties": {
        "name": "William F. Sharpe",
        "born": "Boston, Massachusetts, U.S."
      },
      "geometry": {
        "type": "Point",
        "coordinates": [
          -71.0588801,
          42.3600825
        ]
      }
    },
    {
      "type": "Feature",
      "properties": {
        "name": "Ronald Coase",
        "born": "Willesden, London, United Kingdom"
      },
      "geometry": {
        "type": "Point",
        "coordinates": [
          -0.239096,
          51.548961
        ]
      }
    },
    {
      "type": "Feature",
      "properties": {
        "name": "Gary Becker",
        "born": "Pottsville, Pennsylvania, U.S."
      },
      "geometry": {
        "type": "Point",
        "coordinates": [
          -76.195499,
          40.6856456
        ]
      }
    },
    {
      "type": "Feature",
      "properties": {
        "name": "Robert Fogel",
        "born": "New York City, New York, U.S."
      },
      "geometry": {
        "type": "Point",
        "coordinates": [
          -74.0059413,
          40.7127837
        ]
      }
    },
    {
      "type": "Feature",
      "properties": {
        "name": "Douglass North",
        "born": "Cambridge, Massachusetts, U.S."
      },
      "geometry": {
        "type": "Point",
        "coordinates": [
          -71.10973349999999,
          42.3736158
        ]
      }
    },
    {
      "type": "Feature",
      "properties": {
        "name": "John Harsanyi",
        "born": "Budapest, Hungary"
      },
      "geometry": {
        "type": "Point",
        "coordinates": [
          19.040235,
          47.497912
        ]
      }
    },
    {
      "type": "Feature",
      "properties": {
        "name": "John Forbes Nash",
        "born": "Bluefield, West Virginia, U.S."
      },
      "geometry": {
        "type": "Point",
        "coordinates": [
          -81.2223195,
          37.2698395
        ]
      }
    },
    {
      "type": "Feature",
      "properties": {
        "name": "Reinhard Selten",
        "born": "Breslau (Wrocław)"
      },
      "geometry": {
        "type": "Point",
        "coordinates": [
          17.0385376,
          51.1078852
        ]
      }
    },
    {
      "type": "Feature",
      "properties": {
        "name": "Robert Lucas, Jr.",
        "born": "Yakima, Washington, USA"
      },
      "geometry": {
        "type": "Point",
        "coordinates": [
          -120.5058987,
          46.6020711
        ]
      }
    },
    {
      "type": "Feature",
      "properties": {
        "name": "James Mirrlees",
        "born": "Minnigaff, Kirkcudbrightshire, Scotland"
      },
      "geometry": {
        "type": "Point",
        "coordinates": [
          -4.2026458,
          56.49067119999999
        ]
      }
    },
    {
      "type": "Feature",
      "properties": {
        "name": "William Vickrey",
        "born": "Victoria, British Columbia, Canada"
      },
      "geometry": {
        "type": "Point",
        "coordinates": [
          -123.3656444,
          48.4284207
        ]
      }
    },
    {
      "type": "Feature",
      "properties": {
        "name": "Robert C. Merton",
        "born": "New York City, New York, USA"
      },
      "geometry": {
        "type": "Point",
        "coordinates": [
          -74.0059413,
          40.7127837
        ]
      }
    },
    {
      "type": "Feature",
      "properties": {
        "name": "Myron Scholes",
        "born": "Timmins, Ontario, Canada"
      },
      "geometry": {
        "type": "Point",
        "coordinates": [
          -81.3304953,
          48.4758208
        ]
      }
    },
    {
      "type": "Feature",
      "properties": {
        "name": "Amartya Sen",
        "born": "Manikganj, British India (present-day Bangladesh)"
      },
      "geometry": {
        "type": "Point",
        "coordinates": [
          90.004663,
          23.8644225
        ]
      }
    },
    {
      "type": "Feature",
      "properties": {
        "name": "Robert Mundell",
        "born": "Kingston, Ontario, Canada"
      },
      "geometry": {
        "type": "Point",
        "coordinates": [
          -76.4859544,
          44.2311717
        ]
      }
    },
    {
      "type": "Feature",
      "properties": {
        "name": "James Heckman",
        "born": "Chicago, Illinois, U.S."
      },
      "geometry": {
        "type": "Point",
        "coordinates": [
          -87.6297982,
          41.8781136
        ]
      }
    },
    {
      "type": "Feature",
      "properties": {
        "name": "Daniel McFadden",
        "born": "Raleigh, North Carolina, U.S."
      },
      "geometry": {
        "type": "Point",
        "coordinates": [
          -78.6381787,
          35.7795897
        ]
      }
    },
    {
      "type": "Feature",
      "properties": {
        "name": "George Akerlof",
        "born": "New Haven, Connecticut"
      },
      "geometry": {
        "type": "Point",
        "coordinates": [
          -72.9278835,
          41.308274
        ]
      }
    },
    {
      "type": "Feature",
      "properties": {
        "name": "Michael Spence",
        "born": "Montclair, New Jersey, USA"
      },
      "geometry": {
        "type": "Point",
        "coordinates": [
          -74.2090053,
          40.8259007
        ]
      }
    },
    {
      "type": "Feature",
      "properties": {
        "name": "Joseph E. Stiglitz",
        "born": "Gary, Indiana, U.S."
      },
      "geometry": {
        "type": "Point",
        "coordinates": [
          -87.3464271,
          41.5933696
        ]
      }
    },
    {
      "type": "Feature",
      "properties": {
        "name": "Daniel Kahneman",
        "born": "Tel Aviv, Mandatory Palestine"
      },
      "geometry": {
        "type": "Point",
        "coordinates": [
          34.78176759999999,
          32.0852999
        ]
      }
    },
    {
      "type": "Feature",
      "properties": {
        "name": "Vernon L. Smith",
        "born": "Wichita, Kansas"
      },
      "geometry": {
        "type": "Point",
        "coordinates": [
          -97.33005299999999,
          37.68717609999999
        ]
      }
    },
    {
      "type": "Feature",
      "properties": {
        "name": "Robert F. Engle",
        "born": "Syracuse, New York, USA"
      },
      "geometry": {
        "type": "Point",
        "coordinates": [
          -76.14742439999999,
          43.0481221
        ]
      }
    },
    {
      "type": "Feature",
      "properties": {
        "name": "Clive Granger",
        "born": "Swansea, Wales"
      },
      "geometry": {
        "type": "Point",
        "coordinates": [
          -3.943645999999999,
          51.62144
        ]
      }
    },
    {
      "type": "Feature",
      "properties": {
        "name": "Finn E. Kydland",
        "born": "Ålgård near Stavanger"
      },
      "geometry": {
        "type": "Point",
        "coordinates": [
          5.756410499999999,
          58.9643393
        ]
      }
    },
    {
      "type": "Feature",
      "properties": {
        "name": "Edward C. Prescott",
        "born": "Glens Falls, New York, USA"
      },
      "geometry": {
        "type": "Point",
        "coordinates": [
          -73.6440058,
          43.3095164
        ]
      }
    },
    {
      "type": "Feature",
      "properties": {
        "name": "Robert J. Aumann",
        "born": "Frankfurt am Main, Germany"
      },
      "geometry": {
        "type": "Point",
        "coordinates": [
          8.6821267,
          50.1109221
        ]
      }
    },
    {
      "type": "Feature",
      "properties": {
        "name": "Thomas C. Schelling",
        "born": "Oakland, California, U.S."
      },
      "geometry": {
        "type": "Point",
        "coordinates": [
          -122.2711137,
          37.8043637
        ]
      }
    },
    {
      "type": "Feature",
      "properties": {
        "name": "Edmund S. Phelps",
        "born": "Evanston, Illinois, U.S."
      },
      "geometry": {
        "type": "Point",
        "coordinates": [
          -87.68769689999999,
          42.0450722
        ]
      }
    },
    {
      "type": "Feature",
      "properties": {
        "name": "Leonid Hurwicz",
        "born": "Moscow, Russian Republic"
      },
      "geometry": {
        "type": "Point",
        "coordinates": [
          37.6173,
          55.755826
        ]
      }
    },
    {
      "type": "Feature",
      "properties": {
        "name": "Eric S. Maskin",
        "born": "New York City, New York USA"
      },
      "geometry": {
        "type": "Point",
        "coordinates": [
          -74.0059413,
          40.7127837
        ]
      }
    },
    {
      "type": "Feature",
      "properties": {
        "name": "Roger B. Myerson",
        "born": "Boston, Massachusetts"
      },
      "geometry": {
        "type": "Point",
        "coordinates": [
          -71.0588801,
          42.3600825
        ]
      }
    },
    {
      "type": "Feature",
      "properties": {
        "name": "Paul Krugman",
        "born": "Albany, New York, U.S."
      },
      "geometry": {
        "type": "Point",
        "coordinates": [
          -73.7562317,
          42.6525793
        ]
      }
    },
    {
      "type": "Feature",
      "properties": {
        "name": "Elinor Ostrom",
        "born": "United States"
      },
      "geometry": {
        "type": "Point",
        "coordinates": [
          -95.712891,
          37.09024
        ]
      }
    },
    {
      "type": "Feature",
      "properties": {
        "name": "Oliver E. Williamson",
        "born": "Superior, Wisconsin"
      },
      "geometry": {
        "type": "Point",
        "coordinates": [
          -92.10407959999999,
          46.7207737
        ]
      }
    },
    {
      "type": "Feature",
      "properties": {
        "name": "Peter A. Diamond",
        "born": "New York City, U.S."
      },
      "geometry": {
        "type": "Point",
        "coordinates": [
          -74.0059413,
          40.7127837
        ]
      }
    },
    {
      "type": "Feature",
      "properties": {
        "name": "Dale T. Mortensen",
        "born": "Enterprise, Oregon"
      },
      "geometry": {
        "type": "Point",
        "coordinates": [
          -117.2787815,
          45.4262617
        ]
      }
    },
    {
      "type": "Feature",
      "properties": {
        "name": "Christopher A. Pissarides",
        "born": "Nicosia, Cyprus"
      },
      "geometry": {
        "type": "Point",
        "coordinates": [
          33.38227639999999,
          35.1855659
        ]
      }
    },
    {
      "type": "Feature",
      "properties": {
        "name": "Thomas J. Sargent",
        "born": "Pasadena, California"
      },
      "geometry": {
        "type": "Point",
        "coordinates": [
          -118.1445155,
          34.1477849
        ]
      }
    },
    {
      "type": "Feature",
      "properties": {
        "name": "Christopher A. Sims",
        "born": "Washington, D.C."
      },
      "geometry": {
        "type": "Point",
        "coordinates": [
          -77.0368707,
          38.9071923
        ]
      }
    },
    {
      "type": "Feature",
      "properties": {
        "name": "Alvin E. Roth",
        "born": "New York City"
      },
      "geometry": {
        "type": "Point",
        "coordinates": [
          -74.0059413,
          40.7127837
        ]
      }
    },
    {
      "type": "Feature",
      "properties": {
        "name": "Lloyd S. Shapley",
        "born": "Cambridge, Massachusetts, U.S."
      },
      "geometry": {
        "type": "Point",
        "coordinates": [
          -71.10973349999999,
          42.3736158
        ]
      }
    },
    {
      "type": "Feature",
      "properties": {
        "name": "Eugene F. Fama",
        "born": "Boston, Massachusetts"
      },
      "geometry": {
        "type": "Point",
        "coordinates": [
          -71.0588801,
          42.3600825
        ]
      }
    },
    {
      "type": "Feature",
      "properties": {
        "name": "Lars Peter Hansen",
        "born": "Champaign, Illinois"
      },
      "geometry": {
        "type": "Point",
        "coordinates": [
          -88.2433829,
          40.1164204
        ]
      }
    },
    {
      "type": "Feature",
      "properties": {
        "name": "Robert J. Shiller",
        "born": "Detroit, Michigan"
      },
      "geometry": {
        "type": "Point",
        "coordinates": [
          -83.0457538,
          42.331427
        ]
      }
    },
    {
      "type": "Feature",
      "properties": {
        "name": "Jean Tirole",
        "born": "Troyes, France"
      },
      "geometry": {
        "type": "Point",
        "coordinates": [
          4.0744009,
          48.2973451
        ]
      }
    },
    {
      "type": "Feature",
      "properties": {
        "name": "Angus Deaton",
        "born": "Edinburgh, Scotland, UK"
      },
      "geometry": {
        "type": "Point",
        "coordinates": [
          -3.188267,
          55.953252
        ]
      }
    }
  ]
}